{"type":"FeatureCollection","features":[{"type":"Feature","properties":{"name":"rumah"},"geometry":{"coordinates":[103.62293984669805,-1.6286226552007577],"type":"Point"},"id":0},{"type":"Feature","properties":{"name":"man model"},"geometry":{"coordinates":[103.62473496703797,-1.6278044563577936],"type":"Point"},"id":4},{"type":"Feature","properties":{"name":"rumah bang gilang"},"geometry":{"coordinates":[103.62009528928883,-1.6284339763319622],"type":"Point"},"id":2},{"type":"Feature","properties":{"name":"spbu handil"},"geometry":{"coordinates":[103.6199636231795,-1.622227174371119],"type":"Point"},"id":3},{"type":"Feature","properties":{"name":"kantor lurah thehok"},"geometry":{"coordinates":[103.6233566994274,-1.6243677665425338],"type":"Point"},"id":4},{"type":"Feature","properties":{"name":"kantor lurah"},"geometry":{"coordinates":[103.61965071701155,-1.6225986014855778],"type":"Point"},"id":5},{"type":"Feature","properties":{"name":"taman remaja"},"geometry":{"coordinates":[103.6133753003038,-1.633079363227381],"type":"Point"},"id":6},{"type":"Feature","properties":{"name":"gor"},"geometry":{"coordinates":[103.61161520311339,-1.6319357644163262],"type":"Point"},"id":7},{"type":"Feature","properties":{"name":"tugu kris"},"geometry":{"coordinates":[103.60784619573286,-1.6305935121569064],"type":"Point"},"id":8},{"type":"Feature","properties":{"name":"rumah paman"},"geometry":{"coordinates":[103.62118619750737,-1.6341051612989475],"type":"Point"},"id":9},{"type":"Feature","properties":{"name":"mesjid al huda"},"geometry":{"coordinates":[103.6211631598473,-1.6279483261397303],"type":"Point"},"id":10},{"type":"Feature","properties":{"name":"spbu beringin"},"geometry":{"coordinates":[103.62469570755746,-1.6308655407668766],"type":"Point"},"id":11},{"type":"Feature","properties":{"name":"toko rokok 3"},"geometry":{"coordinates":[103.62441102813557,-1.630594971598498],"type":"Point"},"id":12},{"type":"Feature","properties":{"name":"anisa"},"geometry":{"coordinates":[103.62393060840463,-1.6310066707159478],"type":"Point"},"id":13},{"type":"Feature","properties":{"name":"toko rokok 2"},"geometry":{"coordinates":[103.62527548776859,-1.6296649928375615],"type":"Point"},"id":17},{"type":"Feature","properties":{"name":"toko rokok 1"},"geometry":{"coordinates":[103.62512614774226,-1.6296509978730427],"type":"Point"},"id":18},{"type":"Feature","properties":{"name":"tempat ngaji"},"geometry":{"coordinates":[103.62323767562515,-1.6300157874120629],"type":"Point"},"id":19},{"type":"Feature","properties":{"name":"indomaret"},"geometry":{"coordinates":[103.6209886917718,-1.6322516709230968],"type":"Point"},"id":17},{"type":"Feature","properties":{"name":"jalan pajaitan"},"geometry":{"coordinates":[103.61892327405803,-1.620901365002183],"type":"Point"},"id":18},{"type":"Feature","properties":{"name":"kantor nikah"},"geometry":{"coordinates":[103.62391434396199,-1.6289259914436087],"type":"Point"},"id":19},{"type":"Feature","properties":{"name":"akbin anisa"},"geometry":{"coordinates":[103.62393301146443,-1.6291545759337396],"type":"Point"},"id":20},{"type":"Feature","properties":{"name":"mts model"},"geometry":{"coordinates":[103.62471416607139,-1.626870339582851],"type":"Point"},"id":24},{"type":"Feature","properties":{"name":"min model"},"geometry":{"coordinates":[103.62459749417604,-1.6261006153264645],"type":"Point"},"id":25},{"type":"Feature","properties":{"name":"stikom"},"geometry":{"coordinates":[103.62836152828737,-1.618679852854882],"type":"Point"},"id":26},{"type":"Feature","properties":{"name":"transmart"},"geometry":{"coordinates":[103.62689023205627,-1.6139840086755015],"type":"Point"},"id":27},{"type":"Feature","properties":{"name":"Jambi Prima Mall"},"geometry":{"coordinates":[103.61940349058716,-1.6048473877801825],"type":"Point"},"id":28},{"type":"Feature","properties":{"name":"hotel bw"},"geometry":{"coordinates":[103.63021540243767,-1.6194493555832565],"type":"Point"},"id":29},{"type":"Feature","properties":{"name":"dpd"},"geometry":{"coordinates":[103.63079322183904,-1.6157578235430634],"type":"Point"},"id":30},{"type":"Feature","properties":{"name":"toko lampu"},"geometry":{"coordinates":[103.6242239692071,-1.631397236964034],"type":"Point"},"id":28},{"type":"Feature","properties":{"name":"mesjid at taufiq"},"geometry":{"coordinates":[103.62364569591796,-1.6360252206204677],"type":"Point"},"id":29},{"type":"Feature","properties":{"name":"bengkel andri"},"geometry":{"coordinates":[103.6228131122682,-1.6285727499782467],"type":"Point"},"id":30},{"type":"Feature","properties":{"name":"rumah makan uni jas"},"geometry":{"coordinates":[103.62270957611423,-1.628501938064403],"type":"Point"},"id":31},{"type":"Feature","properties":{"name":"rumah arya"},"geometry":{"coordinates":[103.62340708283693,-1.6282295845300467],"type":"Point"},"id":32},{"type":"Feature","properties":{"name":"rumah yudi"},"geometry":{"coordinates":[103.62297141377547,-1.627424374328541],"type":"Point"},"id":33},{"type":"Feature","properties":{"name":"rumah bagus"},"geometry":{"coordinates":[103.61996225153808,-1.6282053861163632],"type":"Point"},"id":34},{"type":"Feature","properties":{"name":"rumah amin"},"geometry":{"coordinates":[103.62086576735481,-1.6282595751773385],"type":"Point"},"id":35},{"type":"Feature","properties":{"name":"rumah bagas"},"geometry":{"coordinates":[103.62125427915709,-1.628557614985013],"type":"Point"},"id":36},{"type":"Feature","properties":{"name":"rumah isnan"},"geometry":{"coordinates":[103.62125427915709,-1.628927906804435],"type":"Point"},"id":37},{"type":"Feature","properties":{"name":"rumah wim"},"geometry":{"coordinates":[103.62115489241734,-1.6291898204905948],"type":"Point"},"id":38},{"type":"Feature","properties":{"name":"tempat mabuk"},"geometry":{"coordinates":[103.62133559558106,-1.6296323642263673],"type":"Point"},"id":39},{"type":"Feature","properties":{"name":"greenhotel"},"geometry":{"coordinates":[103.62136270105577,-1.629289167051823],"type":"Point"},"id":40},{"type":"Feature","properties":{"name":"puskesman"},"geometry":{"coordinates":[103.62101936504394,-1.6300116873511712],"type":"Point"},"id":41},{"type":"Feature","properties":{"name":"sd 77"},"geometry":{"coordinates":[103.62120006820777,-1.6305264829068733],"type":"Point"},"id":42},{"type":"Feature","properties":{"name":"rumah ikhsan"},"geometry":{"coordinates":[103.62108261115225,-1.6309690263489074],"type":"Point"},"id":43},{"type":"Feature","properties":{"name":"rumah ridho"},"geometry":{"coordinates":[103.6211097166269,-1.6312941602439963],"type":"Point"},"id":44},{"type":"Feature","properties":{"name":"rumah temen"},"geometry":{"coordinates":[103.62255534193497,-1.6312670657545425],"type":"Point"},"id":45},{"type":"Feature","properties":{"name":"warnet"},"geometry":{"coordinates":[103.6231335920578,-1.6311496562975947],"type":"Point"},"id":46},{"type":"Feature","properties":{"name":"pusarea taman remaja"},"geometry":{"coordinates":[103.6134516067687,-1.6337884674744743],"type":"Point"},"id":47},{"type":"Feature","properties":{"name":"tempat beli mabokan"},"geometry":{"coordinates":[103.60359562815705,-1.6301654787522182],"type":"Point"},"id":48},{"type":"Feature","properties":{"name":"tempat aku ditilang waktu smp"},"geometry":{"coordinates":[103.60506561207615,-1.632616506514509],"type":"Point"},"id":49}]}