{"type":"FeatureCollection","features":[{"type":"Feature","properties":{"name":"rumah"},"geometry":{"coordinates":[103.62304801308028,-1.6286912230149255],"type":"Point"}},{"type":"Feature","properties":{"name":"man model"},"geometry":{"coordinates":[103.62475029058521,-1.6281363165256835],"type":"Point"},"id":1},{"type":"Feature","properties":{"name":"mts model"},"geometry":{"coordinates":[103.6246420033176,-1.627119273058895],"type":"Point"}},{"type":"Feature","properties":{"name":"min model"},"geometry":{"coordinates":[103.62464152232769,-1.626604149641409],"type":"Point"},"id":3},{"type":"Feature","properties":{"name":"tk model"},"geometry":{"coordinates":[103.62464593374875,-1.6260838116967022],"type":"Point"},"id":4},{"type":"Feature","properties":{"name":"spbu beringin"},"geometry":{"coordinates":[103.62473026249955,-1.6308781596726618],"type":"Point"}},{"type":"Feature","properties":{"name":"mesjid al huda"},"geometry":{"coordinates":[103.6212106455921,-1.6277414245749924],"type":"Point"}},{"type":"Feature","properties":{"name":"nasi goreng awek"},"geometry":{"coordinates":[103.62145327372957,-1.627434513542056],"type":"Point"}},{"type":"Feature","properties":{"name":"rumah bagus"},"geometry":{"coordinates":[103.62005656789705,-1.6282609375695642],"type":"Point"}},{"type":"Feature","properties":{"name":"warnet scarlet"},"geometry":{"coordinates":[103.62271679219037,-1.6314689653306687],"type":"Point"}},{"type":"Feature","properties":{"name":"indomaret"},"geometry":{"coordinates":[103.62120043823131,-1.632043454096447],"type":"Point"}},{"type":"Feature","properties":{"name":"toko makanan hewan"},"geometry":{"coordinates":[103.62114308976459,-1.6316924474017327],"type":"Point"}},{"type":"Feature","properties":{"name":"puskesmas"},"geometry":{"coordinates":[103.62073724029102,-1.6318838252852714],"type":"Point"}},{"type":"Feature","properties":{"name":"toko cina 1"},"geometry":{"coordinates":[103.62070735920696,-1.6323871495356173],"type":"Point"}},{"type":"Feature","properties":{"name":"rumah isan"},"geometry":{"coordinates":[103.62082284871337,-1.6331721592807042],"type":"Point"}},{"type":"Feature","properties":{"name":"sd 77"},"geometry":{"coordinates":[103.62077410298247,-1.6336707606890002],"type":"Point"},"id":15},{"type":"Feature","properties":{"name":"rumah nia"},"geometry":{"coordinates":[103.62075207365223,-1.6338482043455258],"type":"Point"}},{"type":"Feature","properties":{"name":"rumah paman"},"geometry":{"coordinates":[103.6209830526617,-1.634062997423527],"type":"Point"}},{"type":"Feature","properties":{"name":"mesjid"},"geometry":{"coordinates":[103.62159199732076,-1.6338195185791449],"type":"Point"}},{"type":"Feature","properties":{"name":"asrama haji"},"geometry":{"coordinates":[103.62012006132989,-1.633800147024175],"type":"Point"}},{"type":"Feature","properties":{"name":"taman remaja"},"geometry":{"coordinates":[103.61316571997025,-1.63296143815694],"type":"Point"}},{"type":"Feature","properties":{"name":"gos"},"geometry":{"coordinates":[103.61151755124956,-1.632026974143983],"type":"Point"}},{"type":"Feature","properties":{"name":"gor"},"geometry":{"coordinates":[103.61113789834604,-1.6317202770020884],"type":"Point"}},{"type":"Feature","properties":{"name":"tugu kris siginjai"},"geometry":{"coordinates":[103.60784688534585,-1.6305193683362091],"type":"Point"}},{"type":"Feature","properties":{"name":"rumah sakit siloam"},"geometry":{"coordinates":[103.63566031438336,-1.6285082933352015],"type":"Point"}},{"type":"Feature","properties":{"name":"SPBU dekat slioam"},"geometry":{"coordinates":[103.63385278799518,-1.6301357281195692],"type":"Point"}},{"type":"Feature","properties":{"name":"tugu adipura"},"geometry":{"coordinates":[103.63154765004867,-1.6245979043237924],"type":"Point"}},{"type":"Feature","properties":{"name":"stikom"},"geometry":{"coordinates":[103.62837412752407,-1.6187473845665608],"type":"Point"}},{"type":"Feature","properties":{"name":"hotel bw"},"geometry":{"coordinates":[103.63014207304047,-1.6193988892668898],"type":"Point"}},{"type":"Feature","properties":{"name":"hotel mayang sari"},"geometry":{"coordinates":[103.6284958577736,-1.6179229625288798],"type":"Point"}},{"type":"Feature","properties":{"name":"hotel mandamin"},"geometry":{"coordinates":[103.62784156120944,-1.6160539976101091],"type":"Point"}},{"type":"Feature","properties":{"name":"sanggar seni"},"geometry":{"coordinates":[103.62580265766417,-1.619698665096763],"type":"Point"}},{"type":"Feature","properties":{"name":"mesjid al munawwarah"},"geometry":{"coordinates":[103.62159605323399,-1.6178363897031716],"type":"Point"}},{"type":"Feature","properties":{"name":"sma pgri 2"},"geometry":{"coordinates":[103.61951813803444,-1.6176634720030876],"type":"Point"}},{"type":"Feature","properties":{"name":"spbu handil"},"geometry":{"coordinates":[103.62001657603105,-1.6221957627873564],"type":"Point"}},{"type":"Feature","properties":{"name":"kantor lurah the hok"},"geometry":{"coordinates":[103.62331823222445,-1.624365548858563],"type":"Point"}},{"type":"Feature","properties":{"name":"nopita"},"geometry":{"coordinates":[103.6130284224065,-1.6195289871367322],"type":"Point"}},{"type":"Feature","properties":{"name":"homiya"},"geometry":{"coordinates":[103.6146660703231,-1.6147703540906093],"type":"Point"}},{"type":"Feature","properties":{"name":"kantor camat jelutung"},"geometry":{"coordinates":[103.6166442192968,-1.6157493107253629],"type":"Point"}},{"type":"Feature","properties":{"name":"mesjid miftahurrahman"},"geometry":{"coordinates":[103.61936822771719,-1.6152047254805382],"type":"Point"}},{"type":"Feature","properties":{"name":"tk al kautsar"},"geometry":{"coordinates":[103.61855751092372,-1.6140928635885388],"type":"Point"}},{"type":"Feature","properties":{"name":"sd 200"},"geometry":{"coordinates":[103.6199519438041,-1.6139534755252214],"type":"Point"}},{"type":"Feature","properties":{"name":"rajawali hhh"},"geometry":{"coordinates":[103.62153278305209,-1.611674596053902],"type":"Point"}},{"type":"Feature","properties":{"name":"royal club"},"geometry":{"coordinates":[103.61550921493011,-1.6105465720105627],"type":"Point"}},{"type":"Feature","properties":{"name":"polsek jelutung"},"geometry":{"coordinates":[103.61061534308766,-1.6272725906014358],"type":"Point"}},{"type":"Feature","properties":{"name":"wuling motors"},"geometry":{"coordinates":[103.60340523676092,-1.6325175507658685],"type":"Point"}},{"type":"Feature","properties":{"name":"warung kopi tiga putri"},"geometry":{"coordinates":[103.60276721104538,-1.6268398212640847],"type":"Point"}},{"type":"Feature","properties":{"name":"ato motor"},"geometry":{"coordinates":[103.6023132096397,-1.6262304077821454],"type":"Point"}},{"type":"Feature","properties":{"name":"kampung kecil"},"geometry":{"coordinates":[103.63608289472182,-1.6346886935181004],"type":"Point"}},{"type":"Feature","properties":{"name":"mesjid at taufiq"},"geometry":{"coordinates":[103.6237139169412,-1.6360486564294376],"type":"Point"}}]}